[
{"id": "204456", "title": "Morning Bird Walk", "description": "", "city": "Jackson", "state": "GA", "location": "High Falls State Park", "locationid": "31", "lat": "33.1784900", "lon": "-84.0196700", "url": "/event/204456?c=4347548", "pattern": "", "start": "2/1/2013 8:00:00 AM", "end": "2/1/2013 12:00:00 AM", "allDay": "", "nullend": "true"},
{"id": "204248", "title": "Dancing Through The Decades", "description": "", "city": "Helen", "state": "GA", "location": "Unicoi State Park and Lodge", "locationid": "98", "lat": "34.7230300", "lon": "-83.7223000", "url": "/event/204248?c=4347461", "pattern": "1", "start": "2/1/2013 5:30:00 PM", "end": "2/1/2013 7:00:00 PM", "allDay": ""},
{"id": "203366", "title": "Family Nature Quest", "description": "", "city": "St. Marys", "state": "GA", "location": "Crooked River State Park", "locationid": "39", "lat": "30.8422056", "lon": "-81.5524700", "url": "/event/203366?c=4347055", "pattern": "1", "start": "2/2/2013 10:00:00 AM", "end": "2/2/2013 12:00:00 PM", "allDay": ""},
{"id": "147517", "title": "High Falls Historic Walk", "description": "", "city": "Jackson", "state": "GA", "location": "High Falls State Park", "locationid": "31", "lat": "33.1784900", "lon": "-84.0196700", "url": "/event/147517?c=4346936", "pattern": "1", "start": "2/2/2013 10:00:00 AM", "end": "2/2/2013 11:00:00 AM", "allDay": ""},
{"id": "147517", "title": "High Falls Historic Walk", "description": "", "city": "Jackson", "state": "GA", "location": "High Falls State Park", "locationid": "31", "lat": "33.1784900", "lon": "-84.0196700", "url": "/event/147517?c=4347603", "pattern": "", "start": "2/2/2013 10:00:00 AM", "end": "2/2/2013 11:15:00 AM", "allDay": ""},
{"id": "203278", "title": "Advanced Land Navigation Course at Buck Shoals", "description": "", "city": "Helen", "state": "GA", "location": "Smithgall Woods State Park", "locationid": "97", "lat": "34.6919500", "lon": "-83.7671500", "url": "/event/203278?c=4346982", "pattern": "", "start": "2/2/2013 10:00:00 AM", "end": "2/2/2013 4:30:00 PM", "allDay": ""},
{"id": "202294", "title": "Basic Photography", "description": "", "city": "Stockbridge", "state": "GA", "location": "Panola Mountain State Park", "locationid": "11", "lat": "33.6246262", "lon": "-84.1758166", "url": "/event/202294?c=4347568", "pattern": "", "start": "2/2/2013 10:00:00 AM", "end": "2/2/2013 12:00:00 AM", "allDay": "", "nullend": "true"},
{"id": "204524", "title": "Dendrology: Winter Tree Identification", "description": "", "city": "Stockbridge", "state": "GA", "location": "Panola Mountain State Park", "locationid": "11", "lat": "33.6246262", "lon": "-84.1758166", "url": "/event/204524?c=4347565", "pattern": "", "start": "2/2/2013 10:00:00 AM", "end": "2/2/2013 12:00:00 PM", "allDay": ""},
{"id": "204310", "title": "Learn to Play the Dulcimer", "description": "", "city": "Helen", "state": "GA", "location": "Smithgall Woods State Park", "locationid": "97", "lat": "34.6919500", "lon": "-83.7671500", "url": "/event/204310?c=4347480", "pattern": "", "start": "2/2/2013 1:00:00 PM", "end": "2/2/2013 4:00:00 PM", "allDay": ""},
{"id": "203363", "title": "Close Encounters of the Bird Kind", "description": "", "city": "Dawsonville", "state": "GA", "location": "Amicalola Falls State Park and Lodge", "locationid": "64", "lat": "34.5626520", "lon": "-84.2476270", "url": "/event/203363?c=4347655", "pattern": "", "start": "2/2/2013 1:00:00 PM", "end": "2/2/2013 2:00:00 PM", "allDay": ""},
{"id": "138624", "title": "Historic New Manchester History Hike", "description": "", "city": "Lithia Springs", "state": "GA", "location": "Sweetwater Creek State Park", "locationid": "80", "lat": "33.7567400", "lon": "-84.6401100", "url": "/event/138624?c=4347586", "pattern": "", "start": "2/2/2013 1:00:00 PM", "end": "2/2/2013 2:30:00 PM", "allDay": ""},
{"id": "192212", "title": "Basic Archery", "description": "", "city": "Stockbridge", "state": "GA", "location": "Panola Mountain State Park", "locationid": "11", "lat": "33.6246262", "lon": "-84.1758166", "url": "/event/192212?c=4347395", "pattern": "", "start": "2/2/2013 3:00:00 PM", "end": "2/2/2013 12:00:00 AM", "allDay": "", "nullend": "true"},
{"id": "203704", "title": "Focus on Fitness Hike", "description": "", "city": "Adel", "state": "GA", "location": "Reed Bingham State Park", "locationid": "94", "lat": "31.1617800", "lon": "-83.5389700", "url": "/event/203704?c=4347374", "pattern": "", "start": "2/2/2013 4:00:00 PM", "end": "2/2/2013 5:00:00 PM", "allDay": ""},
{"id": "203612", "title": "Exploring Georgia's Past - Historic Wagon Ride Tour", "description": "", "city": "Rutledge", "state": "GA", "location": "Hard Labor Creek State Park", "locationid": "35", "lat": "33.6642480", "lon": "-83.6119270", "url": "/event/203612?c=4347205", "pattern": "", "start": "2/2/2013 4:00:00 PM", "end": "2/2/2013 5:00:00 PM", "allDay": ""},
{"id": "203612", "title": "Exploring Georgia's Past - Historic Wagon Ride Tour", "description": "", "city": "Rutledge", "state": "GA", "location": "Hard Labor Creek State Park", "locationid": "35", "lat": "33.6642480", "lon": "-83.6119270", "url": "/event/203612?c=4347206", "pattern": "", "start": "2/2/2013 5:00:00 PM", "end": "2/2/2013 6:00:00 PM", "allDay": ""},
{"id": "203507", "title": "Explore Georgia's Past - Fireside stories of the CCC", "description": "", "city": "Rutledge", "state": "GA", "location": "Hard Labor Creek State Park", "locationid": "35", "lat": "33.6642480", "lon": "-83.6119270", "url": "/event/203507?c=4347171", "pattern": "", "start": "2/2/2013 6:00:00 PM", "end": "2/2/2013 8:00:00 PM", "allDay": ""},
{"id": "152329", "title": "Astronomy Night", "description": "", "city": "Lumpkin", "state": "GA", "location": "Providence Canyon State Outdoor Recreation Area", "locationid": "20", "lat": "32.0644450", "lon": "-84.9219130", "url": "/event/152329?c=4347648", "pattern": "", "start": "2/2/2013 6:30:00 PM", "end": "2/2/2013 9:00:00 PM", "allDay": ""},
{"id": "136873", "title": "Backcountry Geology Hike", "description": "", "city": "Lithia Springs", "state": "GA", "location": "Sweetwater Creek State Park", "locationid": "80", "lat": "33.7567400", "lon": "-84.6401100", "url": "/event/136873?c=4346965", "pattern": "", "start": "2/3/2013 1:00:00 PM", "end": "2/3/2013 4:00:00 PM", "allDay": ""},
{"id": "204799", "title": "A Walk Through Time", "description": "", "city": "Pine Mountain", "state": "GA", "location": "F.D. Roosevelt State Park", "locationid": "88", "lat": "32.8375300", "lon": "-84.8156200", "url": "/event/204799?c=4347643", "pattern": "1", "start": "2/3/2013 1:30:00 PM", "end": "2/3/2013 3:00:00 PM", "allDay": ""},
{"id": "173927", "title": "Falconry Experience at Buck Shoals", "description": "", "city": "Helen", "state": "GA", "location": "Smithgall Woods State Park", "locationid": "97", "lat": "34.6919500", "lon": "-83.7671500", "url": "/event/173927?c=4347477", "pattern": "", "start": "2/3/2013 2:00:00 PM", "end": "2/3/2013 5:00:00 PM", "allDay": ""},
{"id": "204277", "title": "Regional Shoots for Law Enforcement Rangers", "description": "", "city": "", "state": "", "location": "", "locationid": "", "lat": "", "lon": "", "url": "/event/204277?c=4347471", "pattern": "7", "start": "2/5/2013 12:00:00 AM", "end": "2/6/2013 12:00:00 AM", "allDay": "true", "nullend": "true"},
{"id": "204362", "title": "Dahlonega’s Mysterious Diving Bell", "description": "", "city": "Dahlonega", "state": "GA", "location": "Dahlonega Gold Museum Historic Site", "locationid": "50", "lat": "34.5327000", "lon": "-83.9845630", "url": "/event/204362?c=4347515", "pattern": "", "start": "2/5/2013 5:30:00 PM", "end": "2/5/2013 7:00:00 PM", "allDay": ""},
{"id": "204430", "title": "2013 Volunteer Kickoff Meeting", "description": "", "city": "Cartersville", "state": "GA", "location": "Red Top Mountain State Park", "locationid": "21", "lat": "34.1552100", "lon": "-84.7021300", "url": "/event/204430?c=4347529", "pattern": "", "start": "2/5/2013 6:30:00 PM", "end": "2/5/2013 8:00:00 PM", "allDay": ""},
{"id": "195100", "title": "\"Wagging Trails\" Evening Dog Hike", "description": "", "city": "Lithia Springs", "state": "GA", "location": "Sweetwater Creek State Park", "locationid": "80", "lat": "33.7567400", "lon": "-84.6401100", "url": "/event/195100?c=4347626", "pattern": "", "start": "2/8/2013 5:00:00 PM", "end": "2/8/2013 6:30:00 PM", "allDay": "", "newslevel": "3"},
{"id": "204248", "title": "Dancing Through The Decades", "description": "", "city": "Helen", "state": "GA", "location": "Unicoi State Park and Lodge", "locationid": "98", "lat": "34.7230300", "lon": "-83.7223000", "url": "/event/204248?c=4347462", "pattern": "1", "start": "2/8/2013 5:30:00 PM", "end": "2/8/2013 7:00:00 PM", "allDay": ""},
{"id": "193180", "title": "Atlanta Audubon Beginners Bird Walk", "description": "", "city": "Rutledge", "state": "GA", "location": "Hard Labor Creek State Park", "locationid": "35", "lat": "33.6642480", "lon": "-83.6119270", "url": "/event/193180?c=4347423", "pattern": "", "start": "2/9/2013 8:00:00 AM", "end": "2/9/2013 11:00:00 AM", "allDay": ""},
{"id": "202633", "title": "Georgia Arbor Day", "description": "", "city": "Adel", "state": "GA", "location": "Reed Bingham State Park", "locationid": "94", "lat": "31.1617800", "lon": "-83.5389700", "url": "/event/202633?c=4346761", "pattern": "", "start": "2/9/2013 9:00:00 AM", "end": "2/9/2013 1:00:00 PM", "allDay": ""},
{"id": "204457", "title": "Birding 101", "description": "", "city": "Jackson", "state": "GA", "location": "High Falls State Park", "locationid": "31", "lat": "33.1784900", "lon": "-84.0196700", "url": "/event/204457?c=4347549", "pattern": "", "start": "2/9/2013 9:00:00 AM", "end": "2/9/2013 12:00:00 AM", "allDay": "", "nullend": "true"},
{"id": "190188", "title": "Colonial Faire & Muster", "description": "", "city": "Savannah", "state": "GA", "location": "Wormsloe Historic Site", "locationid": "7", "lat": "31.9836900", "lon": "-81.0717900", "url": "/event/190188?c=4343608", "pattern": "2", "start": "2/9/2013 10:00:00 AM", "end": "2/9/2013 4:00:00 PM", "allDay": ""},
{"id": "164782", "title": "Behind the Scenes Tour: Hazen's Approach", "description": "", "city": "Dallas", "state": "GA", "location": "Pickett's Mill Battlefield Historic Site", "locationid": "36", "lat": "33.9802600", "lon": "-84.7727700", "url": "/event/164782?c=4347530", "pattern": "", "start": "2/9/2013 10:00:00 AM", "end": "2/9/2013 12:00:00 PM", "allDay": ""},
{"id": "204269", "title": "A Celebration of Independance: Our Revolutionary War Connection", "description": "", "city": "Washington", "state": "GA", "location": "Robert Toombs House Historic Site", "locationid": "47", "lat": "33.7362904", "lon": "-82.7324921", "url": "/event/204269?c=4347467", "pattern": "", "start": "2/9/2013 10:00:00 AM", "end": "2/9/2013 4:00:00 PM", "allDay": ""},
{"id": "204678", "title": "Historic Rutledge Horse Trail Hike", "description": "", "city": "Rutledge", "state": "GA", "location": "Hard Labor Creek State Park", "locationid": "35", "lat": "33.6642480", "lon": "-83.6119270", "url": "/event/204678?c=4347602", "pattern": "", "start": "2/9/2013 10:00:00 AM", "end": "2/9/2013 2:00:00 PM", "allDay": ""},
{"id": "204795", "title": "Bluebird Workshop", "description": "", "city": "Pine Mountain", "state": "GA", "location": "F.D. Roosevelt State Park", "locationid": "88", "lat": "32.8375300", "lon": "-84.8156200", "url": "/event/204795?c=4347637", "pattern": "", "start": "2/9/2013 10:00:00 AM", "end": "2/9/2013 11:30:00 AM", "allDay": ""},
{"id": "190575", "title": "Eastside Hike", "description": "", "city": "Lithia Springs", "state": "GA", "location": "Sweetwater Creek State Park", "locationid": "80", "lat": "33.7567400", "lon": "-84.6401100", "url": "/event/190575?c=4347625", "pattern": "", "start": "2/9/2013 11:00:00 AM", "end": "2/9/2013 2:00:00 PM", "allDay": ""},
{"id": "138624", "title": "Historic New Manchester History Hike", "description": "", "city": "Lithia Springs", "state": "GA", "location": "Sweetwater Creek State Park", "locationid": "80", "lat": "33.7567400", "lon": "-84.6401100", "url": "/event/138624?c=4347587", "pattern": "", "start": "2/9/2013 1:00:00 PM", "end": "2/9/2013 2:30:00 PM", "allDay": ""},
{"id": "203363", "title": "Close Encounters of the Bird Kind", "description": "", "city": "Dawsonville", "state": "GA", "location": "Amicalola Falls State Park and Lodge", "locationid": "64", "lat": "34.5626520", "lon": "-84.2476270", "url": "/event/203363?c=4347656", "pattern": "", "start": "2/9/2013 1:00:00 PM", "end": "2/9/2013 2:00:00 PM", "allDay": ""},
{"id": "204290", "title": "Romantic Valentine's Train Excursion", "description": "", "city": "Cordele", "state": "GA", "location": "SAM Shortline Excursion Train", "locationid": "1144", "lat": "31.9651240", "lon": "-83.9151620", "url": "/event/204290?c=4347473", "pattern": "", "start": "2/9/2013 4:30:00 PM", "end": "2/9/2013 12:00:00 AM", "allDay": "", "nullend": "true"},
{"id": "201910", "title": "Hayride and S'mores", "description": "", "city": "Lithia Springs", "state": "GA", "location": "Sweetwater Creek State Park", "locationid": "80", "lat": "33.7567400", "lon": "-84.6401100", "url": "/event/201910?c=4347627", "pattern": "", "start": "2/9/2013 5:00:00 PM", "end": "2/9/2013 6:30:00 PM", "allDay": ""},
{"id": "114220", "title": "Romantic Valentine's Excursion across Lake Blackshear: \"Be Mine\" Package", "description": "", "city": "", "state": "", "location": "", "locationid": "", "lat": "", "lon": "", "url": "/event/114220?c=4344127", "pattern": "", "start": "2/9/2013 6:00:00 PM", "end": "2/9/2013 6:45:00 PM", "allDay": ""},
{"id": "204861", "title": "Happy Chinese New Year", "description": "", "city": "Savannah", "state": "GA", "location": "Skidaway Island State Park", "locationid": "19", "lat": "31.9434130", "lon": "-81.0549830", "url": "/event/204861?c=4347671", "pattern": "", "start": "2/10/2013 12:00:00 AM", "end": "2/10/2013 12:00:00 AM", "allDay": "true", "nullend": "true"},
{"id": "180176", "title": "Atlanta Audubon Society Bird Walk", "description": "", "city": "Stockbridge", "state": "GA", "location": "Panola Mountain State Park", "locationid": "11", "lat": "33.6246262", "lon": "-84.1758166", "url": "/event/180176?c=4347424", "pattern": "", "start": "2/10/2013 8:00:00 AM", "end": "2/10/2013 11:00:00 AM", "allDay": ""},
{"id": "190188", "title": "Colonial Faire & Muster", "description": "", "city": "Savannah", "state": "GA", "location": "Wormsloe Historic Site", "locationid": "7", "lat": "31.9836900", "lon": "-81.0717900", "url": "/event/190188?c=4343609", "pattern": "2", "start": "2/10/2013 10:00:00 AM", "end": "2/10/2013 4:00:00 PM", "allDay": ""},
{"id": "204799", "title": "A Walk Through Time", "description": "", "city": "Pine Mountain", "state": "GA", "location": "F.D. Roosevelt State Park", "locationid": "88", "lat": "32.8375300", "lon": "-84.8156200", "url": "/event/204799?c=4347644", "pattern": "1", "start": "2/10/2013 1:30:00 PM", "end": "2/10/2013 3:00:00 PM", "allDay": ""},
{"id": "173696", "title": "Fly Tying Clinic", "description": "", "city": "Stockbridge", "state": "GA", "location": "Panola Mountain State Park", "locationid": "11", "lat": "33.6246262", "lon": "-84.1758166", "url": "/event/173696?c=4347566", "pattern": "", "start": "2/10/2013 2:00:00 PM", "end": "2/10/2013 4:00:00 PM", "allDay": ""},
{"id": "203705", "title": "Year of the Snake Celebration", "description": "", "city": "Adel", "state": "GA", "location": "Reed Bingham State Park", "locationid": "94", "lat": "31.1617800", "lon": "-83.5389700", "url": "/event/203705?c=4347376", "pattern": "", "start": "2/10/2013 2:00:00 PM", "end": "2/10/2013 4:00:00 PM", "allDay": ""},
{"id": "201201", "title": "Home School Day", "description": "", "city": "Nicholls", "state": "GA", "location": "General Coffee State Park", "locationid": "28", "lat": "31.5086800", "lon": "-82.7552000", "url": "/event/201201?c=4347373", "pattern": "", "start": "2/13/2013 12:00:00 AM", "end": "2/13/2013 12:00:00 AM", "allDay": "true", "nullend": "true"},
{"id": "203657", "title": "Winter Work Day", "description": "", "city": "Jackson", "state": "GA", "location": "High Falls State Park", "locationid": "31", "lat": "33.1784900", "lon": "-84.0196700", "url": "/event/203657?c=4347234", "pattern": "", "start": "2/13/2013 12:00:00 AM", "end": "2/13/2013 12:00:00 AM", "allDay": "true", "nullend": "true"},
{"id": "203961", "title": "Wild Discovery Camp - Pre-K - 3rd grade", "description": "", "city": "St. Marys", "state": "GA", "location": "Crooked River State Park", "locationid": "39", "lat": "30.8422056", "lon": "-81.5524700", "url": "/event/203961?c=4347432", "pattern": "7", "start": "2/14/2013 9:00:00 AM", "end": "2/15/2013 5:00:00 PM", "allDay": ""},
{"id": "202280", "title": "Art in the Park", "description": "", "city": "Lithia Springs", "state": "GA", "location": "Sweetwater Creek State Park", "locationid": "80", "lat": "33.7567400", "lon": "-84.6401100", "url": "/event/202280?c=4347629", "pattern": "", "start": "2/14/2013 1:00:00 PM", "end": "2/14/2013 3:00:00 PM", "allDay": ""},
{"id": "204403", "title": "Valentine’s Day on Lake Walter F. George", "description": "", "city": "Fort Gaines", "state": "GA", "location": "George T. Bagby State Park and Lodge", "locationid": "54", "lat": "31.6679960", "lon": "-85.0531910", "url": "/event/204403?c=4347524", "pattern": "", "start": "2/14/2013 6:30:00 PM", "end": "2/14/2013 12:00:00 AM", "allDay": "", "nullend": "true"},
{"id": "204794", "title": "Celebrate Arbor Day: Take A Seedling Home", "description": "", "city": "Pine Mountain", "state": "GA", "location": "F.D. Roosevelt State Park", "locationid": "88", "lat": "32.8375300", "lon": "-84.8156200", "url": "/event/204794?c=4347636", "pattern": "", "start": "2/15/2013 12:00:00 AM", "end": "2/15/2013 5:00:00 PM", "allDay": ""},
{"id": "204873", "title": "Nature Trail Hike and Birds of Prey", "description": "", "city": "Savannah", "state": "GA", "location": "Skidaway Island State Park", "locationid": "19", "lat": "31.9434130", "lon": "-81.0549830", "url": "/event/204873?c=4347673", "pattern": "", "start": "2/15/2013 12:00:00 AM", "end": "2/15/2013 12:00:00 AM", "allDay": "true", "nullend": "true"},
{"id": "204793", "title": "Great Backyard Bird Count", "description": "", "city": "Pine Mountain", "state": "GA", "location": "F.D. Roosevelt State Park", "locationid": "88", "lat": "32.8375300", "lon": "-84.8156200", "url": "/event/204793?c=4347635", "pattern": "", "start": "2/15/2013 8:00:00 AM", "end": "2/15/2013 10:00:00 AM", "allDay": ""},
{"id": "204656", "title": "History Hike - Longleaf Pines", "description": "", "city": "Cartersville", "state": "GA", "location": "Red Top Mountain State Park", "locationid": "21", "lat": "34.1552100", "lon": "-84.7021300", "url": "/event/204656?c=4347598", "pattern": "", "start": "2/15/2013 10:00:00 AM", "end": "2/15/2013 11:00:00 AM", "allDay": ""},
{"id": "204874", "title": "Bird Watch and Virtual Island Hopping", "description": "", "city": "Savannah", "state": "GA", "location": "Skidaway Island State Park", "locationid": "19", "lat": "31.9434130", "lon": "-81.0549830", "url": "/event/204874?c=4347674", "pattern": "", "start": "2/16/2013 12:00:00 AM", "end": "2/16/2013 12:00:00 AM", "allDay": "true", "nullend": "true"},
{"id": "201607", "title": "Backyard Bird Count", "description": "", "city": "Adel", "state": "GA", "location": "Reed Bingham State Park", "locationid": "94", "lat": "31.1617800", "lon": "-83.5389700", "url": "/event/201607?c=4346265", "pattern": "", "start": "2/16/2013 8:00:00 AM", "end": "2/16/2013 10:00:00 AM", "allDay": ""},
{"id": "199421", "title": "Valdosta Kennel Club Agility Trials", "description": "", "city": "Adel", "state": "GA", "location": "Reed Bingham State Park", "locationid": "94", "lat": "31.1617800", "lon": "-83.5389700", "url": "/event/199421?c=4345400", "pattern": "", "start": "2/16/2013 8:00:00 AM", "end": "2/16/2013 5:00:00 PM", "allDay": ""},
{"id": "192028", "title": "Panola Unlimited", "description": "", "city": "Stockbridge", "state": "GA", "location": "Panola Mountain State Park", "locationid": "11", "lat": "33.6246262", "lon": "-84.1758166", "url": "/event/192028?c=4347556", "pattern": "", "start": "2/16/2013 9:00:00 AM", "end": "2/16/2013 12:00:00 AM", "allDay": "", "nullend": "true"},
{"id": "197780", "title": "Conductor's Favorite Train Ride", "description": "", "city": "Cordele", "state": "GA", "location": "SAM Shortline Excursion Train - All Aboard!", "locationid": "61030", "lat": "31.9651240", "lon": "-83.9151620", "url": "/event/197780?c=4344128", "pattern": "", "start": "2/16/2013 9:45:00 AM", "end": "2/16/2013 1:45:00 PM", "allDay": ""},
{"id": "203611", "title": "The Dam Walk", "description": "", "city": "Jackson", "state": "GA", "location": "High Falls State Park", "locationid": "31", "lat": "33.1784900", "lon": "-84.0196700", "url": "/event/203611?c=4347200", "pattern": "1", "start": "2/16/2013 10:00:00 AM", "end": "2/16/2013 12:00:00 AM", "allDay": "", "nullend": "true"},
{"id": "203279", "title": "Survival Preparation and Skills Course Series", "description": "", "city": "Helen", "state": "GA", "location": "Smithgall Woods State Park", "locationid": "97", "lat": "34.6919500", "lon": "-83.7671500", "url": "/event/203279?c=4346983", "pattern": "", "start": "2/16/2013 10:00:00 AM", "end": "2/16/2013 3:30:00 PM", "allDay": ""},
{"id": "147126", "title": "History Hike - Iron Hill Mine", "description": "", "city": "Cartersville", "state": "GA", "location": "Red Top Mountain State Park", "locationid": "21", "lat": "34.1552100", "lon": "-84.7021300", "url": "/event/147126?c=4347599", "pattern": "", "start": "2/16/2013 10:00:00 AM", "end": "2/16/2013 12:00:00 PM", "allDay": ""},
{"id": "154315", "title": "Bird Bonanza and Terrific Tree Day", "description": "", "city": "Helena", "state": "GA", "location": "Little Ocmulgee State Park and Lodge", "locationid": "55", "lat": "32.1025020", "lon": "-82.8980300", "url": "/event/154315?c=4347223", "pattern": "", "start": "2/16/2013 10:00:00 AM", "end": "2/16/2013 8:00:00 PM", "allDay": ""},
{"id": "133945", "title": "38th Annual Fireside Craft/Art Show", "description": "", "city": "Helen", "state": "GA", "location": "Unicoi State Park and Lodge", "locationid": "98", "lat": "34.7230300", "lon": "-83.7223000", "url": "/event/133945?c=4346545", "pattern": "", "start": "2/16/2013 10:00:00 AM", "end": "2/16/2013 5:00:00 PM", "allDay": ""},
{"id": "204796", "title": "I Speak for the Trees: An Arbor Day Walk", "description": "", "city": "Pine Mountain", "state": "GA", "location": "F.D. Roosevelt State Park", "locationid": "88", "lat": "32.8375300", "lon": "-84.8156200", "url": "/event/204796?c=4347638", "pattern": "", "start": "2/16/2013 11:00:00 AM", "end": "2/16/2013 12:30:00 PM", "allDay": ""},
{"id": "138624", "title": "Historic New Manchester History Hike", "description": "", "city": "Lithia Springs", "state": "GA", "location": "Sweetwater Creek State Park", "locationid": "80", "lat": "33.7567400", "lon": "-84.6401100", "url": "/event/138624?c=4347588", "pattern": "", "start": "2/16/2013 1:00:00 PM", "end": "2/16/2013 2:30:00 PM", "allDay": ""},
{"id": "203363", "title": "Close Encounters of the Bird Kind", "description": "", "city": "Dawsonville", "state": "GA", "location": "Amicalola Falls State Park and Lodge", "locationid": "64", "lat": "34.5626520", "lon": "-84.2476270", "url": "/event/203363?c=4347657", "pattern": "", "start": "2/16/2013 1:00:00 PM", "end": "2/16/2013 2:00:00 PM", "allDay": ""},
{"id": "203637", "title": "Presidents Day Weekend Guided Tours", "description": "", "city": "Warm Springs", "state": "GA", "location": "Roosevelt's Little White House Historic Site", "locationid": "49", "lat": "32.8827800", "lon": "-84.6836800", "url": "/event/203637?c=4347214", "pattern": "", "start": "2/16/2013 1:00:00 PM", "end": "2/16/2013 2:30:00 PM", "allDay": ""},
{"id": "203343", "title": "Hike to the Heart", "description": "", "city": "Chatsworth", "state": "GA", "location": "Fort Mountain State Park", "locationid": "42", "lat": "34.7613010", "lon": "-84.7027020", "url": "/event/203343?c=4347015", "pattern": "", "start": "2/16/2013 2:00:00 PM", "end": "2/16/2013 3:00:00 PM", "allDay": ""},
{"id": "203637", "title": "Presidents Day Weekend Guided Tours", "description": "", "city": "Warm Springs", "state": "GA", "location": "Roosevelt's Little White House Historic Site", "locationid": "49", "lat": "32.8827800", "lon": "-84.6836800", "url": "/event/203637?c=4347215", "pattern": "", "start": "2/16/2013 3:00:00 PM", "end": "2/16/2013 4:30:00 PM", "allDay": ""},
{"id": "204898", "title": "Geocaching 101", "description": "", "city": "Cartersville", "state": "GA", "location": "Red Top Mountain State Park", "locationid": "21", "lat": "34.1552100", "lon": "-84.7021300", "url": "/event/204898?c=4347684", "pattern": "", "start": "2/16/2013 3:00:00 PM", "end": "2/16/2013 5:00:00 PM", "allDay": ""},
{"id": "203612", "title": "Exploring Georgia's Past - Historic Wagon Ride Tour", "description": "", "city": "Rutledge", "state": "GA", "location": "Hard Labor Creek State Park", "locationid": "35", "lat": "33.6642480", "lon": "-83.6119270", "url": "/event/203612?c=4347209", "pattern": "", "start": "2/16/2013 4:00:00 PM", "end": "2/16/2013 5:00:00 PM", "allDay": ""},
{"id": "203612", "title": "Exploring Georgia's Past - Historic Wagon Ride Tour", "description": "", "city": "Rutledge", "state": "GA", "location": "Hard Labor Creek State Park", "locationid": "35", "lat": "33.6642480", "lon": "-83.6119270", "url": "/event/203612?c=4347210", "pattern": "", "start": "2/16/2013 5:00:00 PM", "end": "2/16/2013 6:00:00 PM", "allDay": ""},
{"id": "203507", "title": "Explore Georgia's Past - Fireside stories of the CCC", "description": "", "city": "Rutledge", "state": "GA", "location": "Hard Labor Creek State Park", "locationid": "35", "lat": "33.6642480", "lon": "-83.6119270", "url": "/event/203507?c=4347172", "pattern": "", "start": "2/16/2013 6:00:00 PM", "end": "2/16/2013 8:00:00 PM", "allDay": ""},
{"id": "188145", "title": "Candlelight Hike to the Mill", "description": "", "city": "Lithia Springs", "state": "GA", "location": "Sweetwater Creek State Park", "locationid": "80", "lat": "33.7567400", "lon": "-84.6401100", "url": "/event/188145?c=4346968", "pattern": "", "start": "2/16/2013 6:00:00 PM", "end": "2/16/2013 8:00:00 PM", "allDay": ""},
{"id": "193220", "title": "Wild Gourmet In Winter", "description": "", "city": "Appling", "state": "GA", "location": "Mistletoe State Park", "locationid": "33", "lat": "33.6416700", "lon": "-82.3683300", "url": "/event/193220?c=4347474", "pattern": "", "start": "2/17/2013 12:00:00 AM", "end": "2/17/2013 12:00:00 AM", "allDay": "true", "nullend": "true"},
{"id": "204875", "title": "Nature Trail Hike and Dinner Time", "description": "", "city": "Savannah", "state": "GA", "location": "Skidaway Island State Park", "locationid": "19", "lat": "31.9434130", "lon": "-81.0549830", "url": "/event/204875?c=4347675", "pattern": "", "start": "2/17/2013 12:00:00 AM", "end": "2/17/2013 12:00:00 AM", "allDay": "true", "nullend": "true"},
{"id": "199421", "title": "Valdosta Kennel Club Agility Trials", "description": "", "city": "Adel", "state": "GA", "location": "Reed Bingham State Park", "locationid": "94", "lat": "31.1617800", "lon": "-83.5389700", "url": "/event/199421?c=4345401", "pattern": "", "start": "2/17/2013 8:00:00 AM", "end": "2/17/2013 5:00:00 PM", "allDay": ""},
{"id": "133945", "title": "38th Annual Fireside Craft/Art Show", "description": "", "city": "Helen", "state": "GA", "location": "Unicoi State Park and Lodge", "locationid": "98", "lat": "34.7230300", "lon": "-83.7223000", "url": "/event/133945?c=4346546", "pattern": "", "start": "2/17/2013 10:00:00 AM", "end": "2/17/2013 5:00:00 PM", "allDay": ""},
{"id": "204439", "title": "Nature Hike", "description": "", "city": "St. Marys", "state": "GA", "location": "Crooked River State Park", "locationid": "39", "lat": "30.8422056", "lon": "-81.5524700", "url": "/event/204439?c=4347539", "pattern": "", "start": "2/17/2013 10:00:00 AM", "end": "2/17/2013 11:30:00 AM", "allDay": ""},
{"id": "204799", "title": "A Walk Through Time", "description": "", "city": "Pine Mountain", "state": "GA", "location": "F.D. Roosevelt State Park", "locationid": "88", "lat": "32.8375300", "lon": "-84.8156200", "url": "/event/204799?c=4347645", "pattern": "1", "start": "2/17/2013 1:30:00 PM", "end": "2/17/2013 3:00:00 PM", "allDay": ""},
{"id": "204405", "title": "Introduction to Tracking", "description": "", "city": "Stockbridge", "state": "GA", "location": "Panola Mountain State Park", "locationid": "11", "lat": "33.6246262", "lon": "-84.1758166", "url": "/event/204405?c=4347527", "pattern": "", "start": "2/17/2013 2:00:00 PM", "end": "2/17/2013 4:00:00 PM", "allDay": ""},
{"id": "201910", "title": "Hayride and S'mores", "description": "", "city": "Lithia Springs", "state": "GA", "location": "Sweetwater Creek State Park", "locationid": "80", "lat": "33.7567400", "lon": "-84.6401100", "url": "/event/201910?c=4347628", "pattern": "", "start": "2/17/2013 5:00:00 PM", "end": "2/17/2013 6:30:00 PM", "allDay": ""},
{"id": "204876", "title": "Happy Presidents Day", "description": "", "city": "Savannah", "state": "GA", "location": "Skidaway Island State Park", "locationid": "19", "lat": "31.9434130", "lon": "-81.0549830", "url": "/event/204876?c=4347676", "pattern": "", "start": "2/18/2013 12:00:00 AM", "end": "2/18/2013 12:00:00 AM", "allDay": "true", "nullend": "true"},
{"id": "203962", "title": "Wild Discovery Camp - 4th - 8th grade", "description": "", "city": "St. Marys", "state": "GA", "location": "Crooked River State Park", "locationid": "39", "lat": "30.8422056", "lon": "-81.5524700", "url": "/event/203962?c=4347433", "pattern": "7", "start": "2/18/2013 9:00:00 AM", "end": "2/19/2013 5:00:00 PM", "allDay": ""},
{"id": "203471", "title": "Jr. Rangers - Survival Skills From The Past", "description": "", "city": "Appling", "state": "GA", "location": "Mistletoe State Park", "locationid": "33", "lat": "33.6416700", "lon": "-82.3683300", "url": "/event/203471?c=4347152", "pattern": "", "start": "2/18/2013 9:30:00 AM", "end": "2/18/2013 2:00:00 PM", "allDay": ""},
{"id": "202280", "title": "Art in the Park", "description": "", "city": "Lithia Springs", "state": "GA", "location": "Sweetwater Creek State Park", "locationid": "80", "lat": "33.7567400", "lon": "-84.6401100", "url": "/event/202280?c=4347630", "pattern": "", "start": "2/18/2013 1:00:00 PM", "end": "2/18/2013 3:00:00 PM", "allDay": ""},
{"id": "204877", "title": "Skidaway History Day", "description": "", "city": "Savannah", "state": "GA", "location": "Skidaway Island State Park", "locationid": "19", "lat": "31.9434130", "lon": "-81.0549830", "url": "/event/204877?c=4347677", "pattern": "", "start": "2/20/2013 12:00:00 AM", "end": "2/20/2013 12:00:00 AM", "allDay": "true", "nullend": "true"},
{"id": "201869", "title": "PRHSD Director's / Friends of Georgia State Parks Conference", "description": "", "city": "", "state": "", "location": "", "locationid": "", "lat": "", "lon": "", "url": "/event/201869?c=4346323", "pattern": "7", "start": "2/20/2013 8:00:00 AM", "end": "2/24/2013 5:00:00 PM", "allDay": ""},
{"id": "204878", "title": "Photo Hike and Invasive Plants", "description": "", "city": "Savannah", "state": "GA", "location": "Skidaway Island State Park", "locationid": "19", "lat": "31.9434130", "lon": "-81.0549830", "url": "/event/204878?c=4347678", "pattern": "", "start": "2/21/2013 12:00:00 AM", "end": "2/21/2013 12:00:00 AM", "allDay": "true", "nullend": "true"},
{"id": "195100", "title": "\"Wagging Trails\" Evening Dog Hike", "description": "", "city": "Lithia Springs", "state": "GA", "location": "Sweetwater Creek State Park", "locationid": "80", "lat": "33.7567400", "lon": "-84.6401100", "url": "/event/195100?c=4347590", "pattern": "", "start": "2/21/2013 5:00:00 PM", "end": "2/21/2013 6:30:00 PM", "allDay": "", "newslevel": "3"},
{"id": "204879", "title": "Basic Tree Identification and Sunset Hike", "description": "", "city": "Savannah", "state": "GA", "location": "Skidaway Island State Park", "locationid": "19", "lat": "31.9434130", "lon": "-81.0549830", "url": "/event/204879?c=4347679", "pattern": "", "start": "2/22/2013 12:00:00 AM", "end": "2/22/2013 12:00:00 AM", "allDay": "true", "nullend": "true"},
{"id": "204880", "title": "Tracks Hike and Reptile/Amphibian Program", "description": "", "city": "Savannah", "state": "GA", "location": "Skidaway Island State Park", "locationid": "19", "lat": "31.9434130", "lon": "-81.0549830", "url": "/event/204880?c=4347680", "pattern": "", "start": "2/23/2013 12:00:00 AM", "end": "2/23/2013 12:00:00 AM", "allDay": "true", "nullend": "true"},
{"id": "203340", "title": "Buzzard Day", "description": "", "city": "Adel", "state": "GA", "location": "Reed Bingham State Park", "locationid": "94", "lat": "31.1617800", "lon": "-83.5389700", "url": "/event/203340?c=4347009", "pattern": "", "start": "2/23/2013 9:00:00 AM", "end": "2/23/2013 4:00:00 PM", "allDay": ""},
{"id": "197780", "title": "Conductor's Favorite Train Ride", "description": "", "city": "Cordele", "state": "GA", "location": "SAM Shortline Excursion Train - All Aboard!", "locationid": "61030", "lat": "31.9651240", "lon": "-83.9151620", "url": "/event/197780?c=4344129", "pattern": "", "start": "2/23/2013 9:45:00 AM", "end": "2/23/2013 1:45:00 PM", "allDay": ""},
{"id": "139242", "title": "Geology Day", "description": "", "city": "Lumpkin", "state": "GA", "location": "Providence Canyon State Outdoor Recreation Area", "locationid": "20", "lat": "32.0644450", "lon": "-84.9219130", "url": "/event/139242?c=4347649", "pattern": "", "start": "2/23/2013 11:00:00 AM", "end": "2/23/2013 1:00:00 PM", "allDay": ""},
{"id": "174000", "title": "Hemlock Update and Winter Botany", "description": "", "city": "Helen", "state": "GA", "location": "Smithgall Woods State Park", "locationid": "97", "lat": "34.6919500", "lon": "-83.7671500", "url": "/event/174000?c=4347478", "pattern": "", "start": "2/23/2013 12:00:00 PM", "end": "2/23/2013 4:00:00 PM", "allDay": ""},
{"id": "138624", "title": "Historic New Manchester History Hike", "description": "", "city": "Lithia Springs", "state": "GA", "location": "Sweetwater Creek State Park", "locationid": "80", "lat": "33.7567400", "lon": "-84.6401100", "url": "/event/138624?c=4347589", "pattern": "", "start": "2/23/2013 1:00:00 PM", "end": "2/23/2013 2:30:00 PM", "allDay": ""},
{"id": "203363", "title": "Close Encounters of the Bird Kind", "description": "", "city": "Dawsonville", "state": "GA", "location": "Amicalola Falls State Park and Lodge", "locationid": "64", "lat": "34.5626520", "lon": "-84.2476270", "url": "/event/203363?c=4347658", "pattern": "", "start": "2/23/2013 1:00:00 PM", "end": "2/23/2013 2:00:00 PM", "allDay": ""},
{"id": "203612", "title": "Exploring Georgia's Past - Historic Wagon Ride Tour", "description": "", "city": "Rutledge", "state": "GA", "location": "Hard Labor Creek State Park", "locationid": "35", "lat": "33.6642480", "lon": "-83.6119270", "url": "/event/203612?c=4347211", "pattern": "", "start": "2/23/2013 1:00:00 PM", "end": "2/23/2013 2:00:00 PM", "allDay": ""},
{"id": "203612", "title": "Exploring Georgia's Past - Historic Wagon Ride Tour", "description": "", "city": "Rutledge", "state": "GA", "location": "Hard Labor Creek State Park", "locationid": "35", "lat": "33.6642480", "lon": "-83.6119270", "url": "/event/203612?c=4347212", "pattern": "", "start": "2/23/2013 2:00:00 PM", "end": "2/23/2013 3:00:00 PM", "allDay": ""},
{"id": "203822", "title": "Life as a Creek Indian", "description": "", "city": "Jackson", "state": "GA", "location": "High Falls State Park", "locationid": "31", "lat": "33.1784900", "lon": "-84.0196700", "url": "/event/203822?c=4347397", "pattern": "", "start": "2/23/2013 2:00:00 PM", "end": "2/23/2013 12:00:00 AM", "allDay": "", "nullend": "true"},
{"id": "199074", "title": "\"Snakes Alive!\" Awareness Program", "description": "", "city": "Lithia Springs", "state": "GA", "location": "Sweetwater Creek State Park", "locationid": "80", "lat": "33.7567400", "lon": "-84.6401100", "url": "/event/199074?c=4347591", "pattern": "", "start": "2/23/2013 3:00:00 PM", "end": "2/23/2013 4:00:00 PM", "allDay": ""},
{"id": "171668", "title": "Full Moon Night Hike", "description": "", "city": "Stockbridge", "state": "GA", "location": "Panola Mountain State Park", "locationid": "11", "lat": "33.6246262", "lon": "-84.1758166", "url": "/event/171668?c=4347440", "pattern": "", "start": "2/23/2013 5:30:00 PM", "end": "2/23/2013 12:00:00 AM", "allDay": "", "nullend": "true"},
{"id": "138675", "title": "\"Ruins to Rapids\" Full Moon Hike", "description": "", "city": "Lithia Springs", "state": "GA", "location": "Sweetwater Creek State Park", "locationid": "80", "lat": "33.7567400", "lon": "-84.6401100", "url": "/event/138675?c=4347242", "pattern": "", "start": "2/23/2013 7:00:00 PM", "end": "2/23/2013 9:00:00 PM", "allDay": ""},
{"id": "204881", "title": "Photo Hike and Dinner Time Show", "description": "", "city": "Savannah", "state": "GA", "location": "Skidaway Island State Park", "locationid": "19", "lat": "31.9434130", "lon": "-81.0549830", "url": "/event/204881?c=4347681", "pattern": "", "start": "2/24/2013 12:00:00 AM", "end": "2/24/2013 12:00:00 AM", "allDay": "true", "nullend": "true"},
{"id": "204799", "title": "A Walk Through Time", "description": "", "city": "Pine Mountain", "state": "GA", "location": "F.D. Roosevelt State Park", "locationid": "88", "lat": "32.8375300", "lon": "-84.8156200", "url": "/event/204799?c=4347646", "pattern": "1", "start": "2/24/2013 1:30:00 PM", "end": "2/24/2013 3:00:00 PM", "allDay": ""},
{"id": "204800", "title": "Snow Moon Ramble", "description": "", "city": "Pine Mountain", "state": "GA", "location": "F.D. Roosevelt State Park", "locationid": "88", "lat": "32.8375300", "lon": "-84.8156200", "url": "/event/204800?c=4347647", "pattern": "", "start": "2/24/2013 6:30:00 PM", "end": "2/24/2013 8:00:00 PM", "allDay": ""},
{"id": "204882", "title": "Craft and Hiking Games", "description": "", "city": "Savannah", "state": "GA", "location": "Skidaway Island State Park", "locationid": "19", "lat": "31.9434130", "lon": "-81.0549830", "url": "/event/204882?c=4347682", "pattern": "", "start": "2/27/2013 12:00:00 AM", "end": "2/27/2013 12:00:00 AM", "allDay": "true", "nullend": "true"},
{"id": "204883", "title": "Skidaway Day", "description": "", "city": "Savannah", "state": "GA", "location": "Skidaway Island State Park", "locationid": "19", "lat": "31.9434130", "lon": "-81.0549830", "url": "/event/204883?c=4347683", "pattern": "", "start": "2/28/2013 12:00:00 AM", "end": "2/28/2013 12:00:00 AM", "allDay": "true", "nullend": "true"}]