{"message":[{"id": ""}], "results":[
{"id": "193484", "title": "Growing Up Wild", "description": "", "city": "Helen", "state": "GA", "location": "Unicoi State Park and Lodge", "locationid": "98", "lat": "34.7230300", "lon": "-83.7223000", "url": "/event/193484?c=4347156&amp;mode=m", "pattern": "", "start": "1/17/2013 12:00:00 AM", "end": "1/17/2013 12:00:00 AM", "allDay": "true", "nullend": "true"},
{"id": "203597", "title": "Beginners Birding (Part 2)", "description": "", "city": "St. Marys", "state": "GA", "location": "Crooked River State Park", "locationid": "39", "lat": "30.8422056", "lon": "-81.5524700", "url": "/event/203597?c=4347193&amp;mode=m", "pattern": "", "start": "1/18/2013 10:00:00 AM", "end": "1/18/2013 12:00:00 PM", "allDay": ""},
{"id": "202280", "title": "Art in the Park", "description": "", "city": "Lithia Springs", "state": "GA", "location": "Sweetwater Creek State Park", "locationid": "80", "lat": "33.7567400", "lon": "-84.6401100", "url": "/event/202280?c=4347241&amp;mode=m", "pattern": "", "start": "1/18/2013 1:00:00 PM", "end": "1/18/2013 3:00:00 PM", "allDay": ""},
{"id": "195100", "title": "\"Wagging Trails\" Evening Dog Hike", "description": "", "city": "Lithia Springs", "state": "GA", "location": "Sweetwater Creek State Park", "locationid": "80", "lat": "33.7567400", "lon": "-84.6401100", "url": "/event/195100?c=4347251&amp;mode=m", "pattern": "", "start": "1/18/2013 5:00:00 PM", "end": "1/18/2013 6:30:00 PM", "allDay": "", "newslevel": "3"},
{"id": "204248", "title": "Dancing Through The Decades", "description": "", "city": "Helen", "state": "GA", "location": "Unicoi State Park and Lodge", "locationid": "98", "lat": "34.7230300", "lon": "-83.7223000", "url": "/event/204248?c=4347459&amp;mode=m", "pattern": "1", "start": "1/18/2013 5:30:00 PM", "end": "1/18/2013 7:00:00 PM", "allDay": ""},
{"id": "203880", "title": "Bird Walk", "description": "", "city": "Pine Mountain", "state": "GA", "location": "F.D. Roosevelt State Park", "locationid": "88", "lat": "32.8375300", "lon": "-84.8156200", "url": "/event/203880?c=4347401&amp;mode=m", "pattern": "", "start": "1/19/2013 9:00:00 AM", "end": "1/19/2013 10:00:00 AM", "allDay": ""},
{"id": "203611", "title": "The Dam Walk", "description": "", "city": "Jackson", "state": "GA", "location": "High Falls State Park", "locationid": "31", "lat": "33.1784900", "lon": "-84.0196700", "url": "/event/203611?c=4347199&amp;mode=m", "pattern": "1", "start": "1/19/2013 10:00:00 AM", "end": "1/19/2013 12:00:00 AM", "allDay": "", "nullend": "true"},
{"id": "203732", "title": "Priest Landing Clean-Up", "description": "", "city": "Savannah", "state": "GA", "location": "Skidaway Island State Park", "locationid": "19", "lat": "31.9434130", "lon": "-81.0549830", "url": "/event/203732?c=4347396&amp;mode=m", "pattern": "", "start": "1/19/2013 10:00:00 AM", "end": "1/19/2013 12:00:00 PM", "allDay": ""},
{"id": "192028", "title": "Panola Unlimited", "description": "", "city": "Stockbridge", "state": "GA", "location": "Panola Mountain State Park", "locationid": "11", "lat": "33.6246262", "lon": "-84.1758166", "url": "/event/192028?c=4347394&amp;mode=m", "pattern": "", "start": "1/19/2013 10:00:00 AM", "end": "1/19/2013 12:00:00 AM", "allDay": "", "nullend": "true"},
{"id": "14858", "title": "Dulcimer Jam", "description": "", "city": "Appling", "state": "GA", "location": "Mistletoe State Park", "locationid": "33", "lat": "33.6416700", "lon": "-82.3683300", "url": "/event/14858?c=4347149&amp;mode=m", "pattern": "", "start": "1/19/2013 10:00:00 AM", "end": "1/19/2013 4:00:00 PM", "allDay": ""},
{"id": "203277", "title": "Survival Skill Series at Buck Shoals", "description": "", "city": "Helen", "state": "GA", "location": "Smithgall Woods State Park", "locationid": "97", "lat": "34.6919500", "lon": "-83.7671500", "url": "/event/203277?c=4346981&amp;mode=m", "pattern": "", "start": "1/19/2013 10:00:00 AM", "end": "1/19/2013 1:00:00 PM", "allDay": ""},
{"id": "203505", "title": "Winter Wonder Hike on Lake Rutledge Horse Trail", "description": "", "city": "Rutledge", "state": "GA", "location": "Hard Labor Creek State Park", "locationid": "35", "lat": "33.6642480", "lon": "-83.6119270", "url": "/event/203505?c=4347161&amp;mode=m", "pattern": "", "start": "1/19/2013 10:00:00 AM", "end": "1/19/2013 1:00:00 PM", "allDay": ""},
{"id": "203356", "title": "Bark In The Park: Dog Parade & Walk", "description": "", "city": "Pine Mountain", "state": "GA", "location": "F.D. Roosevelt State Park", "locationid": "88", "lat": "32.8375300", "lon": "-84.8156200", "url": "/event/203356?c=4347405&amp;mode=m", "pattern": "1", "start": "1/19/2013 1:00:00 PM", "end": "1/19/2013 12:00:00 AM", "allDay": "", "nullend": "true"},
{"id": "203363", "title": "Close Encounters of the Bird Kind", "description": "", "city": "Dawsonville", "state": "GA", "location": "Amicalola Falls State Park and Lodge", "locationid": "64", "lat": "34.5631730", "lon": "-84.2472840", "url": "/event/203363?c=4347421&amp;mode=m", "pattern": "", "start": "1/19/2013 1:00:00 PM", "end": "1/19/2013 2:00:00 PM", "allDay": ""},
{"id": "138624", "title": "Historic New Manchester History Hike", "description": "", "city": "Lithia Springs", "state": "GA", "location": "Sweetwater Creek State Park", "locationid": "80", "lat": "33.7567400", "lon": "-84.6401100", "url": "/event/138624?c=4347249&amp;mode=m", "pattern": "", "start": "1/19/2013 1:00:00 PM", "end": "1/19/2013 2:30:00 PM", "allDay": ""},
{"id": "196440", "title": "Ranger-led Panola Mountain Hike", "description": "", "city": "Stockbridge", "state": "GA", "location": "Panola Mountain State Park", "locationid": "11", "lat": "33.6246262", "lon": "-84.1758166", "url": "/event/196440?c=4347393&amp;mode=m", "pattern": "", "start": "1/19/2013 2:00:00 PM", "end": "1/19/2013 12:00:00 AM", "allDay": "", "nullend": "true"},
{"id": "199074", "title": "\"Snakes Alive!\" Awareness Program", "description": "", "city": "Lithia Springs", "state": "GA", "location": "Sweetwater Creek State Park", "locationid": "80", "lat": "33.7567400", "lon": "-84.6401100", "url": "/event/199074?c=4347368&amp;mode=m", "pattern": "", "start": "1/19/2013 3:00:00 PM", "end": "1/19/2013 4:00:00 PM", "allDay": ""},
{"id": "183432", "title": "Guided Sunset Canoe Trip on Billy's Lake", "description": "", "city": "Fargo", "state": "GA", "location": "Stephen C. Foster State Park", "locationid": "22", "lat": "30.8269500", "lon": "-82.3621000", "url": "/event/183432?c=4347453&amp;mode=m", "pattern": "", "start": "1/19/2013 5:00:00 PM", "end": "1/19/2013 12:00:00 AM", "allDay": "", "nullend": "true"},
{"id": "193428", "title": "Nighttime Lunar Sky Watch Program", "description": "", "city": "St. Marys", "state": "GA", "location": "Crooked River State Park", "locationid": "39", "lat": "30.8422056", "lon": "-81.5524700", "url": "/event/193428?c=4347186&amp;mode=m", "pattern": "", "start": "1/19/2013 6:30:00 PM", "end": "1/19/2013 8:30:00 PM", "allDay": ""},
{"id": "203361", "title": "Winter Walk", "description": "", "city": "Pine Mountain", "state": "GA", "location": "F.D. Roosevelt State Park", "locationid": "88", "lat": "32.8375300", "lon": "-84.8156200", "url": "/event/203361?c=4347414&amp;mode=m", "pattern": "1", "start": "1/20/2013 12:00:00 AM", "end": "1/20/2013 12:00:00 AM", "allDay": "true", "nullend": "true"},
{"id": "203362", "title": "Holiday Bird Tree", "description": "", "city": "Pine Mountain", "state": "GA", "location": "F.D. Roosevelt State Park", "locationid": "88", "lat": "32.8375300", "lon": "-84.8156200", "url": "/event/203362?c=4347410&amp;mode=m", "pattern": "1", "start": "1/20/2013 11:00:00 AM", "end": "1/20/2013 1:00:00 PM", "allDay": ""},
{"id": "203848", "title": "MLK Day Service Project", "description": "", "city": "Rutledge", "state": "GA", "location": "Hard Labor Creek State Park", "locationid": "35", "lat": "33.6642480", "lon": "-83.6119270", "url": "/event/203848?c=4347398&amp;mode=m", "pattern": "", "start": "1/20/2013 1:00:00 PM", "end": "1/20/2013 4:00:00 PM", "allDay": ""},
{"id": "201910", "title": "Hayride and S'mores", "description": "", "city": "Lithia Springs", "state": "GA", "location": "Sweetwater Creek State Park", "locationid": "80", "lat": "33.7567400", "lon": "-84.6401100", "url": "/event/201910?c=4347245&amp;mode=m", "pattern": "", "start": "1/20/2013 5:00:00 PM", "end": "1/20/2013 6:30:00 PM", "allDay": ""},
{"id": "203469", "title": "Jr. Rangers - Wildlife", "description": "", "city": "Appling", "state": "GA", "location": "Mistletoe State Park", "locationid": "33", "lat": "33.6416700", "lon": "-82.3683300", "url": "/event/203469?c=4347151&amp;mode=m", "pattern": "", "start": "1/21/2013 9:30:00 AM", "end": "1/21/2013 2:00:00 PM", "allDay": ""},
{"id": "193484", "title": "Growing Up Wild", "description": "", "city": "Helen", "state": "GA", "location": "Unicoi State Park and Lodge", "locationid": "98", "lat": "34.7230300", "lon": "-83.7223000", "url": "/event/193484?c=4347157&amp;mode=m", "pattern": "", "start": "1/24/2013 12:00:00 AM", "end": "1/24/2013 12:00:00 AM", "allDay": "true", "nullend": "true"},
{"id": "203656", "title": "Winter Work Day", "description": "", "city": "Winder", "state": "GA", "location": "Fort Yargo State Park", "locationid": "61", "lat": "33.9656770", "lon": "-83.7254330", "url": "/event/203656?c=4347233&amp;mode=m", "pattern": "", "start": "1/24/2013 12:00:00 AM", "end": "1/24/2013 12:00:00 AM", "allDay": "true", "nullend": "true"},
{"id": "197854", "title": "Solar Astronomy", "description": "", "city": "St. Marys", "state": "GA", "location": "Crooked River State Park", "locationid": "39", "lat": "30.8422056", "lon": "-81.5524700", "url": "/event/197854?c=4346907&amp;mode=m", "pattern": "", "start": "1/25/2013 10:00:00 AM", "end": "1/25/2013 12:30:00 PM", "allDay": ""},
{"id": "204248", "title": "Dancing Through The Decades", "description": "", "city": "Helen", "state": "GA", "location": "Unicoi State Park and Lodge", "locationid": "98", "lat": "34.7230300", "lon": "-83.7223000", "url": "/event/204248?c=4347460&amp;mode=m", "pattern": "1", "start": "1/25/2013 5:30:00 PM", "end": "1/25/2013 7:00:00 PM", "allDay": ""},
{"id": "66713", "title": "Star Party", "description": "", "city": "Helen", "state": "GA", "location": "Smithgall Woods State Park", "locationid": "97", "lat": "34.6919500", "lon": "-83.7671500", "url": "/event/66713?c=4347476&amp;mode=m", "pattern": "", "start": "1/25/2013 6:00:00 PM", "end": "1/25/2013 8:30:00 PM", "allDay": ""},
{"id": "203707", "title": "Fox Frolic", "description": "", "city": "Adel", "state": "GA", "location": "Reed Bingham State Park", "locationid": "94", "lat": "31.1617800", "lon": "-83.5389700", "url": "/event/203707?c=4347379&amp;mode=m", "pattern": "", "start": "1/25/2013 7:00:00 PM", "end": "1/25/2013 9:00:00 PM", "allDay": ""},
{"id": "203677", "title": "Landscape Photography Workshop", "description": "", "city": "Helen", "state": "GA", "location": "Unicoi State Park and Lodge", "locationid": "98", "lat": "34.7230300", "lon": "-83.7223000", "url": "/event/203677?c=4347367&amp;mode=m", "pattern": "", "start": "1/26/2013 9:00:00 AM", "end": "1/26/2013 4:00:00 PM", "allDay": ""},
{"id": "203880", "title": "Bird Walk", "description": "", "city": "Pine Mountain", "state": "GA", "location": "F.D. Roosevelt State Park", "locationid": "88", "lat": "32.8375300", "lon": "-84.8156200", "url": "/event/203880?c=4347402&amp;mode=m", "pattern": "", "start": "1/26/2013 9:00:00 AM", "end": "1/26/2013 10:00:00 AM", "allDay": ""},
{"id": "203972", "title": "Volunteer Spruce Up the Park Day", "description": "", "city": "Millen", "state": "GA", "location": "Magnolia Springs State Park", "locationid": "91", "lat": "32.8759000", "lon": "-81.9580800", "url": "/event/203972?c=4347435&amp;mode=m", "pattern": "", "start": "1/26/2013 9:00:00 AM", "end": "1/26/2013 12:00:00 AM", "allDay": "", "nullend": "true"},
{"id": "136607", "title": "Dulcimer-Making Workshop", "description": "", "thumbnail": "/files/georgiaparks/2012/dulcimer-1-thumb.jpg", "city": "Helen", "state": "GA", "location": "Smithgall Woods State Park", "locationid": "97", "lat": "34.6919500", "lon": "-83.7671500", "url": "/event/136607?c=4347235&amp;mode=m", "pattern": "", "start": "1/26/2013 9:00:00 AM", "end": "1/26/2013 5:00:00 PM", "allDay": ""},
{"id": "197854", "title": "Solar Astronomy", "description": "", "city": "St. Marys", "state": "GA", "location": "Crooked River State Park", "locationid": "39", "lat": "30.8422056", "lon": "-81.5524700", "url": "/event/197854?c=4346908&amp;mode=m", "pattern": "", "start": "1/26/2013 10:00:00 AM", "end": "1/26/2013 12:30:00 PM", "allDay": ""},
{"id": "203610", "title": "Weekend Family Fun - Tree ID and Full Moon Hike", "description": "", "city": "Jackson", "state": "GA", "location": "High Falls State Park", "locationid": "31", "lat": "33.1784900", "lon": "-84.0196700", "url": "/event/203610?c=4347204&amp;mode=m", "pattern": "", "start": "1/26/2013 10:00:00 AM", "end": "1/26/2013 12:00:00 AM", "allDay": "", "nullend": "true"},
{"id": "203356", "title": "Bark In The Park: Dog Parade & Walk", "description": "", "city": "Pine Mountain", "state": "GA", "location": "F.D. Roosevelt State Park", "locationid": "88", "lat": "32.8375300", "lon": "-84.8156200", "url": "/event/203356?c=4347406&amp;mode=m", "pattern": "1", "start": "1/26/2013 1:00:00 PM", "end": "1/26/2013 12:00:00 AM", "allDay": "", "nullend": "true"},
{"id": "203363", "title": "Close Encounters of the Bird Kind", "description": "", "city": "Dawsonville", "state": "GA", "location": "Amicalola Falls State Park and Lodge", "locationid": "64", "lat": "34.5631730", "lon": "-84.2472840", "url": "/event/203363?c=4347422&amp;mode=m", "pattern": "", "start": "1/26/2013 1:00:00 PM", "end": "1/26/2013 2:00:00 PM", "allDay": ""},
{"id": "138624", "title": "Historic New Manchester History Hike", "description": "", "city": "Lithia Springs", "state": "GA", "location": "Sweetwater Creek State Park", "locationid": "80", "lat": "33.7567400", "lon": "-84.6401100", "url": "/event/138624?c=4347250&amp;mode=m", "pattern": "", "start": "1/26/2013 1:00:00 PM", "end": "1/26/2013 2:30:00 PM", "allDay": ""},
{"id": "171668", "title": "Full Moon Night Hike", "description": "", "city": "Stockbridge", "state": "GA", "location": "Panola Mountain State Park", "locationid": "11", "lat": "33.6246262", "lon": "-84.1758166", "url": "/event/171668?c=4346956&amp;mode=m", "pattern": "", "start": "1/26/2013 5:30:00 PM", "end": "1/26/2013 12:00:00 AM", "allDay": "", "nullend": "true"},
{"id": "194150", "title": "Moonlight Hike", "description": "", "city": "Rutledge", "state": "GA", "location": "Hard Labor Creek State Park", "locationid": "35", "lat": "33.6642480", "lon": "-83.6119270", "url": "/event/194150?c=4347162&amp;mode=m", "pattern": "", "start": "1/26/2013 5:30:00 PM", "end": "1/26/2013 7:00:00 PM", "allDay": ""},
{"id": "138675", "title": "\"Ruins to Rapids\" Full Moon Hike", "description": "", "city": "Lithia Springs", "state": "GA", "location": "Sweetwater Creek State Park", "locationid": "80", "lat": "33.7567400", "lon": "-84.6401100", "url": "/event/138675?c=4346971&amp;mode=m", "pattern": "", "start": "1/26/2013 6:00:00 PM", "end": "1/26/2013 8:00:00 PM", "allDay": ""},
{"id": "203882", "title": "Wolf Moon Ramble", "description": "", "city": "Pine Mountain", "state": "GA", "location": "F.D. Roosevelt State Park", "locationid": "88", "lat": "32.8375300", "lon": "-84.8156200", "url": "/event/203882?c=4347407&amp;mode=m", "pattern": "", "start": "1/26/2013 6:30:00 PM", "end": "1/26/2013 8:00:00 PM", "allDay": ""},
{"id": "203361", "title": "Winter Walk", "description": "", "city": "Pine Mountain", "state": "GA", "location": "F.D. Roosevelt State Park", "locationid": "88", "lat": "32.8375300", "lon": "-84.8156200", "url": "/event/203361?c=4347415&amp;mode=m", "pattern": "1", "start": "1/27/2013 12:00:00 AM", "end": "1/27/2013 12:00:00 AM", "allDay": "true", "nullend": "true"},
{"id": "203362", "title": "Holiday Bird Tree", "description": "", "city": "Pine Mountain", "state": "GA", "location": "F.D. Roosevelt State Park", "locationid": "88", "lat": "32.8375300", "lon": "-84.8156200", "url": "/event/203362?c=4347411&amp;mode=m", "pattern": "1", "start": "1/27/2013 11:00:00 AM", "end": "1/27/2013 1:00:00 PM", "allDay": ""},
{"id": "3195", "title": "Celebrate FDR's Birthday", "description": "", "city": "Pine Mountain", "state": "GA", "location": "F.D. Roosevelt State Park", "locationid": "88", "lat": "32.8375300", "lon": "-84.8156200", "url": "/event/3195?c=4347445&amp;mode=m", "pattern": "", "start": "1/27/2013 1:00:00 PM", "end": "1/27/2013 4:00:00 PM", "allDay": ""},
{"id": "204180", "title": "Happy Birthday FDR", "description": "", "city": "Warm Springs", "state": "GA", "location": "Roosevelt's Little White House Historic Site", "locationid": "49", "lat": "32.8827800", "lon": "-84.6836800", "url": "/event/204180?c=4347452&amp;mode=m", "pattern": "", "start": "1/30/2013 9:00:00 AM", "end": "1/30/2013 5:00:00 PM", "allDay": ""},
{"id": "193484", "title": "Growing Up Wild", "description": "", "city": "Helen", "state": "GA", "location": "Unicoi State Park and Lodge", "locationid": "98", "lat": "34.7230300", "lon": "-83.7223000", "url": "/event/193484?c=4347158&amp;mode=m", "pattern": "", "start": "1/31/2013 12:00:00 AM", "end": "1/31/2013 12:00:00 AM", "allDay": "true", "nullend": "true"},
{"id": "204248", "title": "Dancing Through The Decades", "description": "", "city": "Helen", "state": "GA", "location": "Unicoi State Park and Lodge", "locationid": "98", "lat": "34.7230300", "lon": "-83.7223000", "url": "/event/204248?c=4347461&amp;mode=m", "pattern": "1", "start": "2/1/2013 5:30:00 PM", "end": "2/1/2013 7:00:00 PM", "allDay": ""},
{"id": "147517", "title": "High Falls Historic Walk", "description": "", "city": "Jackson", "state": "GA", "location": "High Falls State Park", "locationid": "31", "lat": "33.1784900", "lon": "-84.0196700", "url": "/event/147517?c=4346936&amp;mode=m", "pattern": "1", "start": "2/2/2013 10:00:00 AM", "end": "2/2/2013 11:00:00 AM", "allDay": ""},
{"id": "203366", "title": "Family Nature Quest", "description": "", "city": "St. Marys", "state": "GA", "location": "Crooked River State Park", "locationid": "39", "lat": "30.8422056", "lon": "-81.5524700", "url": "/event/203366?c=4347055&amp;mode=m", "pattern": "1", "start": "2/2/2013 10:00:00 AM", "end": "2/2/2013 12:00:00 PM", "allDay": ""},
{"id": "203278", "title": "Advanced Land Navigation Course at Buck Shoals", "description": "", "city": "Helen", "state": "GA", "location": "Smithgall Woods State Park", "locationid": "97", "lat": "34.6919500", "lon": "-83.7671500", "url": "/event/203278?c=4346982&amp;mode=m", "pattern": "", "start": "2/2/2013 10:00:00 AM", "end": "2/2/2013 4:30:00 PM", "allDay": ""},
{"id": "204310", "title": "Learn to Play the Dulcimer", "description": "", "city": "Helen", "state": "GA", "location": "Smithgall Woods State Park", "locationid": "97", "lat": "34.6919500", "lon": "-83.7671500", "url": "/event/204310?c=4347480&amp;mode=m", "pattern": "", "start": "2/2/2013 1:00:00 PM", "end": "2/2/2013 4:00:00 PM", "allDay": ""},
{"id": "192212", "title": "Basic Archery", "description": "", "city": "Stockbridge", "state": "GA", "location": "Panola Mountain State Park", "locationid": "11", "lat": "33.6246262", "lon": "-84.1758166", "url": "/event/192212?c=4347395&amp;mode=m", "pattern": "", "start": "2/2/2013 3:00:00 PM", "end": "2/2/2013 12:00:00 AM", "allDay": "", "nullend": "true"},
{"id": "203612", "title": "Exploring Georgia's Past - Historic Wagon Ride Tour", "description": "", "city": "Rutledge", "state": "GA", "location": "Hard Labor Creek State Park", "locationid": "35", "lat": "33.6642480", "lon": "-83.6119270", "url": "/event/203612?c=4347205&amp;mode=m", "pattern": "", "start": "2/2/2013 4:00:00 PM", "end": "2/2/2013 5:00:00 PM", "allDay": ""},
{"id": "203704", "title": "Focus on Fitness Hike", "description": "", "city": "Adel", "state": "GA", "location": "Reed Bingham State Park", "locationid": "94", "lat": "31.1617800", "lon": "-83.5389700", "url": "/event/203704?c=4347374&amp;mode=m", "pattern": "", "start": "2/2/2013 4:00:00 PM", "end": "2/2/2013 5:00:00 PM", "allDay": ""},
{"id": "203612", "title": "Exploring Georgia's Past - Historic Wagon Ride Tour", "description": "", "city": "Rutledge", "state": "GA", "location": "Hard Labor Creek State Park", "locationid": "35", "lat": "33.6642480", "lon": "-83.6119270", "url": "/event/203612?c=4347206&amp;mode=m", "pattern": "", "start": "2/2/2013 5:00:00 PM", "end": "2/2/2013 6:00:00 PM", "allDay": ""},
{"id": "203507", "title": "Explore Georgia's Past - Fireside stories of the CCC", "description": "", "city": "Rutledge", "state": "GA", "location": "Hard Labor Creek State Park", "locationid": "35", "lat": "33.6642480", "lon": "-83.6119270", "url": "/event/203507?c=4347171&amp;mode=m", "pattern": "", "start": "2/2/2013 6:00:00 PM", "end": "2/2/2013 8:00:00 PM", "allDay": ""},
{"id": "136873", "title": "Backcountry Geology Hike", "description": "", "city": "Lithia Springs", "state": "GA", "location": "Sweetwater Creek State Park", "locationid": "80", "lat": "33.7567400", "lon": "-84.6401100", "url": "/event/136873?c=4346965&amp;mode=m", "pattern": "", "start": "2/3/2013 1:00:00 PM", "end": "2/3/2013 4:00:00 PM", "allDay": ""},
{"id": "173927", "title": "Falconry Experience at Buck Shoals", "description": "", "city": "Helen", "state": "GA", "location": "Smithgall Woods State Park", "locationid": "97", "lat": "34.6919500", "lon": "-83.7671500", "url": "/event/173927?c=4347477&amp;mode=m", "pattern": "", "start": "2/3/2013 2:00:00 PM", "end": "2/3/2013 5:00:00 PM", "allDay": ""},
{"id": "204277", "title": "Regional Shoots for Law Enforcement Rangers", "description": "", "city": "", "state": "", "location": "", "locationid": "", "lat": "", "lon": "", "url": "/event/204277?c=4347471&amp;mode=m", "pattern": "7", "start": "2/5/2013 12:00:00 AM", "end": "2/6/2013 12:00:00 AM", "allDay": "true", "nullend": "true"},
{"id": "204362", "title": "Dahlonegaâ€™s Mysterious Diving Bell", "description": "", "city": "Dahlonega", "state": "GA", "location": "Dahlonega Gold Museum Historic Site", "locationid": "50", "lat": "34.5327000", "lon": "-83.9845630", "url": "/event/204362?c=4347515&amp;mode=m", "pattern": "", "start": "2/5/2013 5:30:00 PM", "end": "2/5/2013 7:00:00 PM", "allDay": ""},
{"id": "204248", "title": "Dancing Through The Decades", "description": "", "city": "Helen", "state": "GA", "location": "Unicoi State Park and Lodge", "locationid": "98", "lat": "34.7230300", "lon": "-83.7223000", "url": "/event/204248?c=4347462&amp;mode=m", "pattern": "1", "start": "2/8/2013 5:30:00 PM", "end": "2/8/2013 7:00:00 PM", "allDay": ""},
{"id": "193180", "title": "Atlanta Audubon Beginners Bird Walk", "description": "", "city": "Rutledge", "state": "GA", "location": "Hard Labor Creek State Park", "locationid": "35", "lat": "33.6642480", "lon": "-83.6119270", "url": "/event/193180?c=4347423&amp;mode=m", "pattern": "", "start": "2/9/2013 8:00:00 AM", "end": "2/9/2013 11:00:00 AM", "allDay": ""},
{"id": "202633", "title": "Georgia Arbor Day", "description": "", "city": "Adel", "state": "GA", "location": "Reed Bingham State Park", "locationid": "94", "lat": "31.1617800", "lon": "-83.5389700", "url": "/event/202633?c=4346761&amp;mode=m", "pattern": "", "start": "2/9/2013 9:00:00 AM", "end": "2/9/2013 1:00:00 PM", "allDay": ""},
{"id": "190188", "title": "Colonial Faire & Muster", "description": "", "city": "Savannah", "state": "GA", "location": "Wormsloe Historic Site", "locationid": "7", "lat": "31.9836900", "lon": "-81.0717900", "url": "/event/190188?c=4343608&amp;mode=m", "pattern": "2", "start": "2/9/2013 10:00:00 AM", "end": "2/9/2013 4:00:00 PM", "allDay": ""},
{"id": "204269", "title": "A Celebration of Independance: Our Revolutionary War Connection", "description": "", "city": "Washington", "state": "GA", "location": "Robert Toombs House Historic Site", "locationid": "47", "lat": "33.7362904", "lon": "-82.7324921", "url": "/event/204269?c=4347467&amp;mode=m", "pattern": "", "start": "2/9/2013 10:00:00 AM", "end": "2/9/2013 4:00:00 PM", "allDay": ""},
{"id": "174000", "title": "Hemlock Update and Winter Botany", "description": "", "city": "Helen", "state": "GA", "location": "Smithgall Woods State Park", "locationid": "97", "lat": "34.6919500", "lon": "-83.7671500", "url": "/event/174000?c=4347478&amp;mode=m", "pattern": "", "start": "2/9/2013 12:00:00 PM", "end": "2/9/2013 4:00:00 PM", "allDay": ""},
{"id": "203612", "title": "Exploring Georgia's Past - Historic Wagon Ride Tour", "description": "", "city": "Rutledge", "state": "GA", "location": "Hard Labor Creek State Park", "locationid": "35", "lat": "33.6642480", "lon": "-83.6119270", "url": "/event/203612?c=4347207&amp;mode=m", "pattern": "", "start": "2/9/2013 1:00:00 PM", "end": "2/9/2013 2:00:00 PM", "allDay": ""},
{"id": "203612", "title": "Exploring Georgia's Past - Historic Wagon Ride Tour", "description": "", "city": "Rutledge", "state": "GA", "location": "Hard Labor Creek State Park", "locationid": "35", "lat": "33.6642480", "lon": "-83.6119270", "url": "/event/203612?c=4347208&amp;mode=m", "pattern": "", "start": "2/9/2013 2:00:00 PM", "end": "2/9/2013 3:00:00 PM", "allDay": ""},
{"id": "204290", "title": "Romantic Valentine's Train Excursion", "description": "", "city": "Cordele", "state": "GA", "location": "SAM Shortline Excursion Train", "locationid": "1144", "lat": "31.9651240", "lon": "-83.9151620", "url": "/event/204290?c=4347473&amp;mode=m", "pattern": "", "start": "2/9/2013 4:30:00 PM", "end": "2/9/2013 12:00:00 AM", "allDay": "", "nullend": "true"},
{"id": "114220", "title": "Romantic Valentine's Excursion across Lake Blackshear: \"Be Mine\" Package", "description": "", "city": "", "state": "", "location": "", "locationid": "", "lat": "", "lon": "", "url": "/event/114220?c=4344127&amp;mode=m", "pattern": "", "start": "2/9/2013 6:00:00 PM", "end": "2/9/2013 6:45:00 PM", "allDay": ""},
{"id": "180176", "title": "Atlanta Audubon Society Bird Walk", "description": "", "city": "Stockbridge", "state": "GA", "location": "Panola Mountain State Park", "locationid": "11", "lat": "33.6246262", "lon": "-84.1758166", "url": "/event/180176?c=4347424&amp;mode=m", "pattern": "", "start": "2/10/2013 8:00:00 AM", "end": "2/10/2013 11:00:00 AM", "allDay": ""},
{"id": "190188", "title": "Colonial Faire & Muster", "description": "", "city": "Savannah", "state": "GA", "location": "Wormsloe Historic Site", "locationid": "7", "lat": "31.9836900", "lon": "-81.0717900", "url": "/event/190188?c=4343609&amp;mode=m", "pattern": "2", "start": "2/10/2013 10:00:00 AM", "end": "2/10/2013 4:00:00 PM", "allDay": ""},
{"id": "203705", "title": "Year of the Snake Celebration", "description": "", "city": "Adel", "state": "GA", "location": "Reed Bingham State Park", "locationid": "94", "lat": "31.1617800", "lon": "-83.5389700", "url": "/event/203705?c=4347376&amp;mode=m", "pattern": "", "start": "2/10/2013 2:00:00 PM", "end": "2/10/2013 4:00:00 PM", "allDay": ""},
{"id": "203657", "title": "Winter Work Day", "description": "", "city": "Jackson", "state": "GA", "location": "High Falls State Park", "locationid": "31", "lat": "33.1784900", "lon": "-84.0196700", "url": "/event/203657?c=4347234&amp;mode=m", "pattern": "", "start": "2/13/2013 12:00:00 AM", "end": "2/13/2013 12:00:00 AM", "allDay": "true", "nullend": "true"},
{"id": "201201", "title": "Home School Day", "description": "", "city": "Nicholls", "state": "GA", "location": "General Coffee State Park", "locationid": "28", "lat": "31.5086800", "lon": "-82.7552000", "url": "/event/201201?c=4347373&amp;mode=m", "pattern": "", "start": "2/13/2013 12:00:00 AM", "end": "2/13/2013 12:00:00 AM", "allDay": "true", "nullend": "true"},
{"id": "203961", "title": "Wild Discovery Camp - Pre-K - 3rd grade", "description": "", "city": "St. Marys", "state": "GA", "location": "Crooked River State Park", "locationid": "39", "lat": "30.8422056", "lon": "-81.5524700", "url": "/event/203961?c=4347432&amp;mode=m", "pattern": "7", "start": "2/14/2013 9:00:00 AM", "end": "2/15/2013 5:00:00 PM", "allDay": ""},
{"id": "201607", "title": "Backyard Bird Count", "description": "", "city": "Adel", "state": "GA", "location": "Reed Bingham State Park", "locationid": "94", "lat": "31.1617800", "lon": "-83.5389700", "url": "/event/201607?c=4346265&amp;mode=m", "pattern": "", "start": "2/16/2013 8:00:00 AM", "end": "2/16/2013 10:00:00 AM", "allDay": ""},
{"id": "199421", "title": "Valdosta Kennel Club Agility Trials", "description": "", "city": "Adel", "state": "GA", "location": "Reed Bingham State Park", "locationid": "94", "lat": "31.1617800", "lon": "-83.5389700", "url": "/event/199421?c=4345400&amp;mode=m", "pattern": "", "start": "2/16/2013 8:00:00 AM", "end": "2/16/2013 5:00:00 PM", "allDay": ""},
{"id": "197780", "title": "Conductor's Favorite Train Ride", "description": "", "city": "Cordele", "state": "GA", "location": "SAM Shortline Excursion Train - All Aboard!", "locationid": "61030", "lat": "31.9651240", "lon": "-83.9151620", "url": "/event/197780?c=4344128&amp;mode=m", "pattern": "", "start": "2/16/2013 9:45:00 AM", "end": "2/16/2013 1:45:00 PM", "allDay": ""},
{"id": "203611", "title": "The Dam Walk", "description": "", "city": "Jackson", "state": "GA", "location": "High Falls State Park", "locationid": "31", "lat": "33.1784900", "lon": "-84.0196700", "url": "/event/203611?c=4347200&amp;mode=m", "pattern": "1", "start": "2/16/2013 10:00:00 AM", "end": "2/16/2013 12:00:00 AM", "allDay": "", "nullend": "true"},
{"id": "203279", "title": "Survival Preparation and Skills Course Series", "description": "", "city": "Helen", "state": "GA", "location": "Smithgall Woods State Park", "locationid": "97", "lat": "34.6919500", "lon": "-83.7671500", "url": "/event/203279?c=4346983&amp;mode=m", "pattern": "", "start": "2/16/2013 10:00:00 AM", "end": "2/16/2013 3:30:00 PM", "allDay": ""},
{"id": "154315", "title": "Bird Bonanza and Terrific Tree Day", "description": "", "city": "Helena", "state": "GA", "location": "Little Ocmulgee State Park and Lodge", "locationid": "55", "lat": "32.1025020", "lon": "-82.8980300", "url": "/event/154315?c=4347223&amp;mode=m", "pattern": "", "start": "2/16/2013 10:00:00 AM", "end": "2/16/2013 8:00:00 PM", "allDay": ""},
{"id": "133945", "title": "38th Annual Fireside Craft/Art Show", "description": "", "city": "Helen", "state": "GA", "location": "Unicoi State Park and Lodge", "locationid": "98", "lat": "34.7230300", "lon": "-83.7223000", "url": "/event/133945?c=4346545&amp;mode=m", "pattern": "", "start": "2/16/2013 10:00:00 AM", "end": "2/16/2013 5:00:00 PM", "allDay": ""},
{"id": "203637", "title": "Presidents Day Weekend Guided Tours", "description": "", "city": "Warm Springs", "state": "GA", "location": "Roosevelt's Little White House Historic Site", "locationid": "49", "lat": "32.8827800", "lon": "-84.6836800", "url": "/event/203637?c=4347214&amp;mode=m", "pattern": "", "start": "2/16/2013 1:00:00 PM", "end": "2/16/2013 2:30:00 PM", "allDay": ""},
{"id": "203343", "title": "Hike to the Heart", "description": "", "city": "Chatsworth", "state": "GA", "location": "Fort Mountain State Park", "locationid": "42", "lat": "34.7613010", "lon": "-84.7027020", "url": "/event/203343?c=4347015&amp;mode=m", "pattern": "", "start": "2/16/2013 2:00:00 PM", "end": "2/16/2013 3:00:00 PM", "allDay": ""},
{"id": "203637", "title": "Presidents Day Weekend Guided Tours", "description": "", "city": "Warm Springs", "state": "GA", "location": "Roosevelt's Little White House Historic Site", "locationid": "49", "lat": "32.8827800", "lon": "-84.6836800", "url": "/event/203637?c=4347215&amp;mode=m", "pattern": "", "start": "2/16/2013 3:00:00 PM", "end": "2/16/2013 4:30:00 PM", "allDay": ""},
{"id": "203612", "title": "Exploring Georgia's Past - Historic Wagon Ride Tour", "description": "", "city": "Rutledge", "state": "GA", "location": "Hard Labor Creek State Park", "locationid": "35", "lat": "33.6642480", "lon": "-83.6119270", "url": "/event/203612?c=4347209&amp;mode=m", "pattern": "", "start": "2/16/2013 4:00:00 PM", "end": "2/16/2013 5:00:00 PM", "allDay": ""},
{"id": "203612", "title": "Exploring Georgia's Past - Historic Wagon Ride Tour", "description": "", "city": "Rutledge", "state": "GA", "location": "Hard Labor Creek State Park", "locationid": "35", "lat": "33.6642480", "lon": "-83.6119270", "url": "/event/203612?c=4347210&amp;mode=m", "pattern": "", "start": "2/16/2013 5:00:00 PM", "end": "2/16/2013 6:00:00 PM", "allDay": ""},
{"id": "203507", "title": "Explore Georgia's Past - Fireside stories of the CCC", "description": "", "city": "Rutledge", "state": "GA", "location": "Hard Labor Creek State Park", "locationid": "35", "lat": "33.6642480", "lon": "-83.6119270", "url": "/event/203507?c=4347172&amp;mode=m", "pattern": "", "start": "2/16/2013 6:00:00 PM", "end": "2/16/2013 8:00:00 PM", "allDay": ""},
{"id": "188145", "title": "Candlelight Hike to the Mill", "description": "", "city": "Lithia Springs", "state": "GA", "location": "Sweetwater Creek State Park", "locationid": "80", "lat": "33.7567400", "lon": "-84.6401100", "url": "/event/188145?c=4346968&amp;mode=m", "pattern": "", "start": "2/16/2013 6:00:00 PM", "end": "2/16/2013 8:00:00 PM", "allDay": ""},
{"id": "193220", "title": "Wild Gourmet In Winter", "description": "", "city": "Appling", "state": "GA", "location": "Mistletoe State Park", "locationid": "33", "lat": "33.6416700", "lon": "-82.3683300", "url": "/event/193220?c=4347474&amp;mode=m", "pattern": "", "start": "2/17/2013 12:00:00 AM", "end": "2/17/2013 12:00:00 AM", "allDay": "true", "nullend": "true"},
{"id": "199421", "title": "Valdosta Kennel Club Agility Trials", "description": "", "city": "Adel", "state": "GA", "location": "Reed Bingham State Park", "locationid": "94", "lat": "31.1617800", "lon": "-83.5389700", "url": "/event/199421?c=4345401&amp;mode=m", "pattern": "", "start": "2/17/2013 8:00:00 AM", "end": "2/17/2013 5:00:00 PM", "allDay": ""},
{"id": "133945", "title": "38th Annual Fireside Craft/Art Show", "description": "", "city": "Helen", "state": "GA", "location": "Unicoi State Park and Lodge", "locationid": "98", "lat": "34.7230300", "lon": "-83.7223000", "url": "/event/133945?c=4346546&amp;mode=m", "pattern": "", "start": "2/17/2013 10:00:00 AM", "end": "2/17/2013 5:00:00 PM", "allDay": ""},
{"id": "203962", "title": "Wild Discovery Camp - 4th - 8th grade", "description": "", "city": "St. Marys", "state": "GA", "location": "Crooked River State Park", "locationid": "39", "lat": "30.8422056", "lon": "-81.5524700", "url": "/event/203962?c=4347433&amp;mode=m", "pattern": "7", "start": "2/18/2013 9:00:00 AM", "end": "2/19/2013 5:00:00 PM", "allDay": ""},
{"id": "203471", "title": "Jr. Rangers - Survival Skills From The Past", "description": "", "city": "Appling", "state": "GA", "location": "Mistletoe State Park", "locationid": "33", "lat": "33.6416700", "lon": "-82.3683300", "url": "/event/203471?c=4347152&amp;mode=m", "pattern": "", "start": "2/18/2013 9:30:00 AM", "end": "2/18/2013 2:00:00 PM", "allDay": ""},
{"id": "201869", "title": "PRHSD Director's / Friends of Georgia State Parks Conference", "description": "", "city": "", "state": "", "location": "", "locationid": "", "lat": "", "lon": "", "url": "/event/201869?c=4346323&amp;mode=m", "pattern": "7", "start": "2/20/2013 8:00:00 AM", "end": "2/24/2013 5:00:00 PM", "allDay": ""},
{"id": "203340", "title": "Buzzard Day", "description": "", "city": "Adel", "state": "GA", "location": "Reed Bingham State Park", "locationid": "94", "lat": "31.1617800", "lon": "-83.5389700", "url": "/event/203340?c=4347009&amp;mode=m", "pattern": "", "start": "2/23/2013 9:00:00 AM", "end": "2/23/2013 4:00:00 PM", "allDay": ""},
{"id": "197780", "title": "Conductor's Favorite Train Ride", "description": "", "city": "Cordele", "state": "GA", "location": "SAM Shortline Excursion Train - All Aboard!", "locationid": "61030", "lat": "31.9651240", "lon": "-83.9151620", "url": "/event/197780?c=4344129&amp;mode=m", "pattern": "", "start": "2/23/2013 9:45:00 AM", "end": "2/23/2013 1:45:00 PM", "allDay": ""},
{"id": "203612", "title": "Exploring Georgia's Past - Historic Wagon Ride Tour", "description": "", "city": "Rutledge", "state": "GA", "location": "Hard Labor Creek State Park", "locationid": "35", "lat": "33.6642480", "lon": "-83.6119270", "url": "/event/203612?c=4347211&amp;mode=m", "pattern": "", "start": "2/23/2013 1:00:00 PM", "end": "2/23/2013 2:00:00 PM", "allDay": ""},
{"id": "203822", "title": "Life as a Creek Indian", "description": "", "city": "Jackson", "state": "GA", "location": "High Falls State Park", "locationid": "31", "lat": "33.1784900", "lon": "-84.0196700", "url": "/event/203822?c=4347397&amp;mode=m", "pattern": "", "start": "2/23/2013 2:00:00 PM", "end": "2/23/2013 12:00:00 AM", "allDay": "", "nullend": "true"},
{"id": "171668", "title": "Full Moon Night Hike", "description": "", "city": "Stockbridge", "state": "GA", "location": "Panola Mountain State Park", "locationid": "11", "lat": "33.6246262", "lon": "-84.1758166", "url": "/event/171668?c=4347440&amp;mode=m", "pattern": "", "start": "2/23/2013 5:30:00 PM", "end": "2/23/2013 12:00:00 AM", "allDay": "", "nullend": "true"},
{"id": "138675", "title": "\"Ruins to Rapids\" Full Moon Hike", "description": "", "city": "Lithia Springs", "state": "GA", "location": "Sweetwater Creek State Park", "locationid": "80", "lat": "33.7567400", "lon": "-84.6401100", "url": "/event/138675?c=4347242&amp;mode=m", "pattern": "", "start": "2/23/2013 6:00:00 PM", "end": "2/23/2013 8:00:00 PM", "allDay": ""},
{"id": "203612", "title": "Exploring Georgia's Past - Historic Wagon Ride Tour", "description": "", "city": "Rutledge", "state": "GA", "location": "Hard Labor Creek State Park", "locationid": "35", "lat": "33.6642480", "lon": "-83.6119270", "url": "/event/203612?c=4347212&amp;mode=m", "pattern": "", "start": "2/24/2013 2:00:00 PM", "end": "2/24/2013 3:00:00 PM", "allDay": ""}], "count":[{"id": "105"}], "instances":[{"id": "0"}], "ongoing":[{"id": "0"}]}